{"type":"FeatureCollection","crs":{"type":"name","properties":{"name":"EPSG:4326"}},"features":[{"type":"Feature","id":0,"geometry":{"type":"Point","coordinates":[-81.271209999999996,37.252617000000001]},"properties":{"FID":0,"OBJECTID":11440,"Team_ID":"2016_Appalachian_Bluefield","Season":2016,"Parent_Lea":"American","Parent_Tea":"TOR","League":"Appalachian","Team":"Bluefield","Team_1":"Bluefield","Classifica":"Rk","Location_I":"Bluefield_VA_US","City":"Bluefield","State":"VA","Country":"US","Lat":37.252617000000001,"Long":-81.271209999999996}},{"type":"Feature","id":1,"geometry":{"type":"Point","coordinates":[-82.188467000000003,36.596494999999997]},"properties":{"FID":1,"OBJECTID":11441,"Team_ID":"2016_Appalachian_Bristol","Season":2016,"Parent_Lea":"National","Parent_Tea":"PIT","League":"Appalachian","Team":"Bristol","Team_1":"Bristol","Classifica":"Rk","Location_I":"Bristol_VA_US","City":"Bristol","State":"VA","Country":"US","Lat":36.596494999999997,"Long":-82.188467000000003}},{"type":"Feature","id":2,"geometry":{"type":"Point","coordinates":[-79.437798999999998,36.095692]},"properties":{"FID":2,"OBJECTID":11442,"Team_ID":"2016_Appalachian_Burlington","Season":2016,"Parent_Lea":"American","Parent_Tea":"KC","League":"Appalachian","Team":"Burlington","Team_1":"Burlington","Classifica":"Rk","Location_I":"Burlington_NC_US","City":"Burlington","State":"NC","Country":"US","Lat":36.095692,"Long":-79.437798999999998}},{"type":"Feature","id":3,"geometry":{"type":"Point","coordinates":[-83.245435999999998,32.605710000000002]},"properties":{"FID":3,"OBJECTID":11443,"Team_ID":"2016_Appalachian_Danville","Season":2016,"Parent_Lea":"National","Parent_Tea":"ATL","League":"Appalachian","Team":"Danville","Team_1":"Danville","Classifica":"Rk","Location_I":"Danville_GA_US","City":"Danville","State":"GA","Country":"US","Lat":32.605710000000002,"Long":-83.245435999999998}},{"type":"Feature","id":4,"geometry":{"type":"Point","coordinates":[-82.210688000000005,36.34872]},"properties":{"FID":4,"OBJECTID":11444,"Team_ID":"2016_Appalachian_Elizabethton","Season":2016,"Parent_Lea":"American","Parent_Tea":"MIN","League":"Appalachian","Team":"Elizabethton","Team_1":"Elizabethton","Classifica":"Rk","Location_I":"Elizabethton_TN_US","City":"Elizabethton","State":"TN","Country":"US","Lat":36.34872,"Long":-82.210688000000005}},{"type":"Feature","id":5,"geometry":{"type":"Point","coordinates":[-82.830985999999996,36.163158000000003]},"properties":{"FID":5,"OBJECTID":11445,"Team_ID":"2016_Appalachian_Greeneville","Season":2016,"Parent_Lea":"American","Parent_Tea":"HOU","League":"Appalachian","Team":"Greeneville","Team_1":"Greeneville","Classifica":"Rk","Location_I":"Greeneville_TN_US","City":"Greeneville","State":"TN","Country":"US","Lat":36.163158000000003,"Long":-82.830985999999996}},{"type":"Feature","id":6,"geometry":{"type":"Point","coordinates":[-82.353472999999994,36.31344]},"properties":{"FID":6,"OBJECTID":11446,"Team_ID":"2016_Appalachian_JohnsonCity","Season":2016,"Parent_Lea":"National","Parent_Tea":"STL","League":"Appalachian","Team":"Johnson City","Team_1":"Johnson City","Classifica":"Rk","Location_I":"JohnsonCity_TN_US","City":"Johnson City","State":"TN","Country":"US","Lat":36.31344,"Long":-82.353472999999994}},{"type":"Feature","id":7,"geometry":{"type":"Point","coordinates":[-82.561819,36.548434]},"properties":{"FID":7,"OBJECTID":11447,"Team_ID":"2016_Appalachian_Kingsport","Season":2016,"Parent_Lea":"National","Parent_Tea":"NYM","League":"Appalachian","Team":"Kingsport","Team_1":"Kingsport","Classifica":"Rk","Location_I":"Kingsport_TN_US","City":"Kingsport","State":"TN","Country":"US","Lat":36.548434,"Long":-82.561819}},{"type":"Feature","id":8,"geometry":{"type":"Point","coordinates":[-81.102576999999997,37.366328000000003]},"properties":{"FID":8,"OBJECTID":11448,"Team_ID":"2016_Appalachian_Princeton","Season":2016,"Parent_Lea":"American","Parent_Tea":"TB","League":"Appalachian","Team":"Princeton","Team_1":"Princeton","Classifica":"Rk","Location_I":"Princeton_WV_US","City":"Princeton","State":"WV","Country":"US","Lat":37.366328000000003,"Long":-81.102576999999997}},{"type":"Feature","id":9,"geometry":{"type":"Point","coordinates":[-80.779792999999998,37.047898000000004]},"properties":{"FID":9,"OBJECTID":11449,"Team_ID":"2016_Appalachian_Pulaski","Season":2016,"Parent_Lea":"American","Parent_Tea":"NYY","League":"Appalachian","Team":"Pulaski","Team_1":"Pulaski","Classifica":"Rk","Location_I":"Pulaski_VA_US","City":"Pulaski","State":"VA","Country":"US","Lat":37.047898000000004,"Long":-80.779792999999998}},{"type":"Feature","id":10,"geometry":{"type":"Point","coordinates":[-111.76327499999999,34.395341999999999]},"properties":{"FID":10,"OBJECTID":11450,"Team_ID":"2016_Arizona_Angels","Season":2016,"Parent_Lea":"American","Parent_Tea":"LAA","League":"Arizona","Team":"Angels","Team_1":"Angels","Classifica":"Rk","Location_I":"AZ_US","City":" ","State":"AZ","Country":"US","Lat":34.395341999999999,"Long":-111.76327499999999}},{"type":"Feature","id":11,"geometry":{"type":"Point","coordinates":[-111.76327499999999,34.395341999999999]},"properties":{"FID":11,"OBJECTID":11451,"Team_ID":"2016_Arizona_Athletics","Season":2016,"Parent_Lea":"American","Parent_Tea":"OAK","League":"Arizona","Team":"Athletics","Team_1":"Athletics","Classifica":"Rk","Location_I":"AZ_US","City":" ","State":"AZ","Country":"US","Lat":34.395341999999999,"Long":-111.76327499999999}},{"type":"Feature","id":12,"geometry":{"type":"Point","coordinates":[-111.76327499999999,34.395341999999999]},"properties":{"FID":12,"OBJECTID":11452,"Team_ID":"2016_Arizona_Brewers","Season":2016,"Parent_Lea":"National","Parent_Tea":"MIL","League":"Arizona","Team":"Brewers","Team_1":"Brewers","Classifica":"Rk","Location_I":"AZ_US","City":" ","State":"AZ","Country":"US","Lat":34.395341999999999,"Long":-111.76327499999999}},{"type":"Feature","id":13,"geometry":{"type":"Point","coordinates":[-111.76327499999999,34.395341999999999]},"properties":{"FID":13,"OBJECTID":11453,"Team_ID":"2016_Arizona_Cubs","Season":2016,"Parent_Lea":"National","Parent_Tea":"CHC","League":"Arizona","Team":"Cubs","Team_1":"Cubs","Classifica":"Rk","Location_I":"AZ_US","City":" ","State":"AZ","Country":"US","Lat":34.395341999999999,"Long":-111.76327499999999}},{"type":"Feature","id":14,"geometry":{"type":"Point","coordinates":[-111.76327499999999,34.395341999999999]},"properties":{"FID":14,"OBJECTID":11454,"Team_ID":"2016_Arizona_Diamondbacks","Season":2016,"Parent_Lea":"National","Parent_Tea":"ARI","League":"Arizona","Team":"Diamondbacks","Team_1":"Diamondbacks","Classifica":"Rk","Location_I":"AZ_US","City":" ","State":"AZ","Country":"US","Lat":34.395341999999999,"Long":-111.76327499999999}},{"type":"Feature","id":15,"geometry":{"type":"Point","coordinates":[-111.76327499999999,34.395341999999999]},"properties":{"FID":15,"OBJECTID":11455,"Team_ID":"2016_Arizona_Dodgers","Season":2016,"Parent_Lea":"National","Parent_Tea":"LAD","League":"Arizona","Team":"Dodgers","Team_1":"Dodgers","Classifica":"Rk","Location_I":"AZ_US","City":" ","State":"AZ","Country":"US","Lat":34.395341999999999,"Long":-111.76327499999999}},{"type":"Feature","id":16,"geometry":{"type":"Point","coordinates":[-111.76327499999999,34.395341999999999]},"properties":{"FID":16,"OBJECTID":11456,"Team_ID":"2016_Arizona_Giants","Season":2016,"Parent_Lea":"National","Parent_Tea":"SF","League":"Arizona","Team":"Giants","Team_1":"Giants","Classifica":"Rk","Location_I":"AZ_US","City":" ","State":"AZ","Country":"US","Lat":34.395341999999999,"Long":-111.76327499999999}},{"type":"Feature","id":17,"geometry":{"type":"Point","coordinates":[-111.76327499999999,34.395341999999999]},"properties":{"FID":17,"OBJECTID":11457,"Team_ID":"2016_Arizona_Indians","Season":2016,"Parent_Lea":"American","Parent_Tea":"CLE","League":"Arizona","Team":"Indians","Team_1":"Indians","Classifica":"Rk","Location_I":"AZ_US","City":" ","State":"AZ","Country":"US","Lat":34.395341999999999,"Long":-111.76327499999999}},{"type":"Feature","id":18,"geometry":{"type":"Point","coordinates":[-111.76327499999999,34.395341999999999]},"properties":{"FID":18,"OBJECTID":11458,"Team_ID":"2016_Arizona_Mariners","Season":2016,"Parent_Lea":"American","Parent_Tea":"SEA","League":"Arizona","Team":"Mariners","Team_1":"Mariners","Classifica":"Rk","Location_I":"AZ_US","City":" ","State":"AZ","Country":"US","Lat":34.395341999999999,"Long":-111.76327499999999}},{"type":"Feature","id":19,"geometry":{"type":"Point","coordinates":[-111.76327499999999,34.395341999999999]},"properties":{"FID":19,"OBJECTID":11459,"Team_ID":"2016_Arizona_Padres","Season":2016,"Parent_Lea":"National","Parent_Tea":"SD","League":"Arizona","Team":"Padres","Team_1":"Padres","Classifica":"Rk","Location_I":"AZ_US","City":" ","State":"AZ","Country":"US","Lat":34.395341999999999,"Long":-111.76327499999999}},{"type":"Feature","id":20,"geometry":{"type":"Point","coordinates":[-111.76327499999999,34.395341999999999]},"properties":{"FID":20,"OBJECTID":11460,"Team_ID":"2016_Arizona_Rangers","Season":2016,"Parent_Lea":"American","Parent_Tea":"TEX","League":"Arizona","Team":"Rangers","Team_1":"Rangers","Classifica":"Rk","Location_I":"AZ_US","City":" ","State":"AZ","Country":"US","Lat":34.395341999999999,"Long":-111.76327499999999}},{"type":"Feature","id":21,"geometry":{"type":"Point","coordinates":[-111.76327499999999,34.395341999999999]},"properties":{"FID":21,"OBJECTID":11461,"Team_ID":"2016_Arizona_Reds","Season":2016,"Parent_Lea":"National","Parent_Tea":"CIN","League":"Arizona","Team":"Reds","Team_1":"Reds","Classifica":"Rk","Location_I":"AZ_US","City":" ","State":"AZ","Country":"US","Lat":34.395341999999999,"Long":-111.76327499999999}},{"type":"Feature","id":22,"geometry":{"type":"Point","coordinates":[-111.76327499999999,34.395341999999999]},"properties":{"FID":22,"OBJECTID":11462,"Team_ID":"2016_Arizona_Royals","Season":2016,"Parent_Lea":"American","Parent_Tea":"KC","League":"Arizona","Team":"Royals","Team_1":"Royals","Classifica":"Rk","Location_I":"AZ_US","City":" ","State":"AZ","Country":"US","Lat":34.395341999999999,"Long":-111.76327499999999}},{"type":"Feature","id":23,"geometry":{"type":"Point","coordinates":[-111.76327499999999,34.395341999999999]},"properties":{"FID":23,"OBJECTID":11463,"Team_ID":"2016_Arizona_WhiteSox","Season":2016,"Parent_Lea":"American","Parent_Tea":"CWS","League":"Arizona","Team":"White Sox","Team_1":"White Sox","Classifica":"Rk","Location_I":"AZ_US","City":" ","State":"AZ","Country":"US","Lat":34.395341999999999,"Long":-111.76327499999999}},{"type":"Feature","id":24,"geometry":{"type":"Point","coordinates":[-81.518484999999998,41.083064]},"properties":{"FID":24,"OBJECTID":11524,"Team_ID":"2016_Eastern_Akron","Season":2016,"Parent_Lea":"American","Parent_Tea":"CLE","League":"Eastern","Team":"Akron","Team_1":"Akron","Classifica":"AA","Location_I":"Akron_OH_US","City":"Akron","State":"OH","Country":"US","Lat":41.083064,"Long":-81.518484999999998}},{"type":"Feature","id":25,"geometry":{"type":"Point","coordinates":[-78.394735999999995,40.518681000000001]},"properties":{"FID":25,"OBJECTID":11525,"Team_ID":"2016_Eastern_Altoona","Season":2016,"Parent_Lea":"National","Parent_Tea":"PIT","League":"Eastern","Team":"Altoona","Team_1":"Altoona","Classifica":"AA","Location_I":"Altoona_PA_US","City":"Altoona","State":"PA","Country":"US","Lat":40.518681000000001,"Long":-78.394735999999995}},{"type":"Feature","id":26,"geometry":{"type":"Point","coordinates":[-75.914340999999993,42.096967999999997]},"properties":{"FID":26,"OBJECTID":11526,"Team_ID":"2016_Eastern_Binghamton","Season":2016,"Parent_Lea":"National","Parent_Tea":"NYM","League":"Eastern","Team":"Binghamton","Team_1":"Binghamton","Classifica":"AA","Location_I":"Binghamton_NY_US","City":"Binghamton","State":"NY","Country":"US","Lat":42.096967999999997,"Long":-75.914340999999993}},{"type":"Feature","id":27,"geometry":{"type":"Point","coordinates":[-76.731234000000001,38.942965999999998]},"properties":{"FID":27,"OBJECTID":11527,"Team_ID":"2016_Eastern_Bowie","Season":2016,"Parent_Lea":"American","Parent_Tea":"BAL","League":"Eastern","Team":"Bowie","Team_1":"Bowie","Classifica":"AA","Location_I":"Bowie_MD_US","City":"Bowie","State":"MD","Country":"US","Lat":38.942965999999998,"Long":-76.731234000000001}},{"type":"Feature","id":28,"geometry":{"type":"Point","coordinates":[-80.085241999999994,42.129066000000002]},"properties":{"FID":28,"OBJECTID":11528,"Team_ID":"2016_Eastern_Erie","Season":2016,"Parent_Lea":"American","Parent_Tea":"DET","League":"Eastern","Team":"Erie","Team_1":"Erie","Classifica":"AA","Location_I":"Erie_PA_US","City":"Erie","State":"PA","Country":"US","Lat":42.129066000000002,"Long":-80.085241999999994}},{"type":"Feature","id":29,"geometry":{"type":"Point","coordinates":[-76.886111999999997,40.266311000000002]},"properties":{"FID":29,"OBJECTID":11529,"Team_ID":"2016_Eastern_Harrisburg","Season":2016,"Parent_Lea":"National","Parent_Tea":"WSH","League":"Eastern","Team":"Harrisburg","Team_1":"Harrisburg","Classifica":"AA","Location_I":"Harrisburg_PA_US","City":"Harrisburg","State":"PA","Country":"US","Lat":40.266311000000002,"Long":-76.886111999999997}},{"type":"Feature","id":30,"geometry":{"type":"Point","coordinates":[-85.696877999999998,31.102399999999999]},"properties":{"FID":30,"OBJECTID":11530,"Team_ID":"2016_Eastern_Hartford","Season":2016,"Parent_Lea":"National","Parent_Tea":"COL","League":"Eastern","Team":"Hartford","Team_1":"Hartford","Classifica":"AA","Location_I":"Hartford_PA_US","City":"Hartford","State":"PA","Country":"US","Lat":31.102399999999999,"Long":-85.696877999999998}},{"type":"Feature","id":31,"geometry":{"type":"Point","coordinates":[-71.454789000000005,42.995640000000002]},"properties":{"FID":31,"OBJECTID":11531,"Team_ID":"2016_Eastern_NewHampshire","Season":2016,"Parent_Lea":"American","Parent_Tea":"TOR","League":"Eastern","Team":"New Hampshire","Team_1":"New Hampshire","Classifica":"AA","Location_I":"Manchester_NH_US","City":"Manchester","State":"NH","Country":"US","Lat":42.995640000000002,"Long":-71.454789000000005}},{"type":"Feature","id":32,"geometry":{"type":"Point","coordinates":[-122.674195,45.520246999999998]},"properties":{"FID":32,"OBJECTID":11532,"Team_ID":"2016_Eastern_Portland","Season":2016,"Parent_Lea":"American","Parent_Tea":"BOS","League":"Eastern","Team":"Portland","Team_1":"Portland","Classifica":"AA","Location_I":"Portland_OR_US","City":"Portland","State":"OR","Country":"US","Lat":45.520246999999998,"Long":-122.674195}},{"type":"Feature","id":33,"geometry":{"type":"Point","coordinates":[-75.927948999999998,40.335344999999997]},"properties":{"FID":33,"OBJECTID":11533,"Team_ID":"2016_Eastern_Reading","Season":2016,"Parent_Lea":"National","Parent_Tea":"PHI","League":"Eastern","Team":"Reading","Team_1":"Reading","Classifica":"AA","Location_I":"Reading_PA_US","City":"Reading","State":"PA","Country":"US","Lat":40.335344999999997,"Long":-75.927948999999998}},{"type":"Feature","id":34,"geometry":{"type":"Point","coordinates":[-77.434280000000001,37.538508999999998]},"properties":{"FID":34,"OBJECTID":11534,"Team_ID":"2016_Eastern_Richmond","Season":2016,"Parent_Lea":"National","Parent_Tea":"SF","League":"Eastern","Team":"Richmond","Team_1":"Richmond","Classifica":"AA","Location_I":"Richmond_VA_US","City":"Richmond","State":"VA","Country":"US","Lat":37.538508999999998,"Long":-77.434280000000001}},{"type":"Feature","id":35,"geometry":{"type":"Point","coordinates":[-74.742946000000003,40.217058000000002]},"properties":{"FID":35,"OBJECTID":11535,"Team_ID":"2016_Eastern_Trenton","Season":2016,"Parent_Lea":"American","Parent_Tea":"NYY","League":"Eastern","Team":"Trenton","Team_1":"Trenton","Classifica":"AA","Location_I":"Trenton_NJ_US","City":"Trenton","State":"NJ","Country":"US","Lat":40.217058000000002,"Long":-74.742946000000003}},{"type":"Feature","id":36,"geometry":{"type":"Point","coordinates":[-81.463982999999999,27.756767]},"properties":{"FID":36,"OBJECTID":11548,"Team_ID":"2016_GulfCoast_Astros","Season":2016,"Parent_Lea":"American","Parent_Tea":"HOU","League":"Gulf Coast","Team":"Astros","Team_1":"Astros","Classifica":"Rk","Location_I":"FL_US","City":" ","State":"FL","Country":"US","Lat":27.756767,"Long":-81.463982999999999}},{"type":"Feature","id":37,"geometry":{"type":"Point","coordinates":[-81.463982999999999,27.756767]},"properties":{"FID":37,"OBJECTID":11549,"Team_ID":"2016_GulfCoast_BlueJays","Season":2016,"Parent_Lea":"American","Parent_Tea":"TOR","League":"Gulf Coast","Team":"Blue Jays","Team_1":"Blue Jays","Classifica":"Rk","Location_I":"FL_US","City":" ","State":"FL","Country":"US","Lat":27.756767,"Long":-81.463982999999999}},{"type":"Feature","id":38,"geometry":{"type":"Point","coordinates":[-81.463982999999999,27.756767]},"properties":{"FID":38,"OBJECTID":11550,"Team_ID":"2016_GulfCoast_Braves","Season":2016,"Parent_Lea":"National","Parent_Tea":"ATL","League":"Gulf Coast","Team":"Braves","Team_1":"Braves","Classifica":"Rk","Location_I":"FL_US","City":" ","State":"FL","Country":"US","Lat":27.756767,"Long":-81.463982999999999}},{"type":"Feature","id":39,"geometry":{"type":"Point","coordinates":[-81.463982999999999,27.756767]},"properties":{"FID":39,"OBJECTID":11551,"Team_ID":"2016_GulfCoast_Cardinals","Season":2016,"Parent_Lea":"National","Parent_Tea":"STL","League":"Gulf Coast","Team":"Cardinals","Team_1":"Cardinals","Classifica":"Rk","Location_I":"FL_US","City":" ","State":"FL","Country":"US","Lat":27.756767,"Long":-81.463982999999999}},{"type":"Feature","id":40,"geometry":{"type":"Point","coordinates":[-81.463982999999999,27.756767]},"properties":{"FID":40,"OBJECTID":11552,"Team_ID":"2016_GulfCoast_Marlins","Season":2016,"Parent_Lea":"National","Parent_Tea":"MIA","League":"Gulf Coast","Team":"Marlins","Team_1":"Marlins","Classifica":"Rk","Location_I":"FL_US","City":" ","State":"FL","Country":"US","Lat":27.756767,"Long":-81.463982999999999}},{"type":"Feature","id":41,"geometry":{"type":"Point","coordinates":[-81.463982999999999,27.756767]},"properties":{"FID":41,"OBJECTID":11553,"Team_ID":"2016_GulfCoast_Mets","Season":2016,"Parent_Lea":"National","Parent_Tea":"NYM","League":"Gulf Coast","Team":"Mets","Team_1":"Mets","Classifica":"Rk","Location_I":"FL_US","City":" ","State":"FL","Country":"US","Lat":27.756767,"Long":-81.463982999999999}},{"type":"Feature","id":42,"geometry":{"type":"Point","coordinates":[-81.463982999999999,27.756767]},"properties":{"FID":42,"OBJECTID":11554,"Team_ID":"2016_GulfCoast_Nationals","Season":2016,"Parent_Lea":"National","Parent_Tea":"WSH","League":"Gulf Coast","Team":"Nationals","Team_1":"Nationals","Classifica":"Rk","Location_I":"FL_US","City":" ","State":"FL","Country":"US","Lat":27.756767,"Long":-81.463982999999999}},{"type":"Feature","id":43,"geometry":{"type":"Point","coordinates":[-81.463982999999999,27.756767]},"properties":{"FID":43,"OBJECTID":11555,"Team_ID":"2016_GulfCoast_Orioles","Season":2016,"Parent_Lea":"American","Parent_Tea":"BAL","League":"Gulf Coast","Team":"Orioles","Team_1":"Orioles","Classifica":"Rk","Location_I":"FL_US","City":" ","State":"FL","Country":"US","Lat":27.756767,"Long":-81.463982999999999}},{"type":"Feature","id":44,"geometry":{"type":"Point","coordinates":[-81.463982999999999,27.756767]},"properties":{"FID":44,"OBJECTID":11556,"Team_ID":"2016_GulfCoast_Phillies","Season":2016,"Parent_Lea":"National","Parent_Tea":"PHI","League":"Gulf Coast","Team":"Phillies","Team_1":"Phillies","Classifica":"Rk","Location_I":"FL_US","City":" ","State":"FL","Country":"US","Lat":27.756767,"Long":-81.463982999999999}},{"type":"Feature","id":45,"geometry":{"type":"Point","coordinates":[-81.463982999999999,27.756767]},"properties":{"FID":45,"OBJECTID":11557,"Team_ID":"2016_GulfCoast_Pirates","Season":2016,"Parent_Lea":"National","Parent_Tea":"PIT","League":"Gulf Coast","Team":"Pirates","Team_1":"Pirates","Classifica":"Rk","Location_I":"FL_US","City":" ","State":"FL","Country":"US","Lat":27.756767,"Long":-81.463982999999999}},{"type":"Feature","id":46,"geometry":{"type":"Point","coordinates":[-81.463982999999999,27.756767]},"properties":{"FID":46,"OBJECTID":11558,"Team_ID":"2016_GulfCoast_Rays","Season":2016,"Parent_Lea":"American","Parent_Tea":"TB","League":"Gulf Coast","Team":"Rays","Team_1":"Rays","Classifica":"Rk","Location_I":"FL_US","City":" ","State":"FL","Country":"US","Lat":27.756767,"Long":-81.463982999999999}},{"type":"Feature","id":47,"geometry":{"type":"Point","coordinates":[-81.463982999999999,27.756767]},"properties":{"FID":47,"OBJECTID":11559,"Team_ID":"2016_GulfCoast_RedSox","Season":2016,"Parent_Lea":"American","Parent_Tea":"BOS","League":"Gulf Coast","Team":"Red Sox","Team_1":"Red Sox","Classifica":"Rk","Location_I":"FL_US","City":" ","State":"FL","Country":"US","Lat":27.756767,"Long":-81.463982999999999}},{"type":"Feature","id":48,"geometry":{"type":"Point","coordinates":[-81.463982999999999,27.756767]},"properties":{"FID":48,"OBJECTID":11560,"Team_ID":"2016_GulfCoast_TigersEast","Season":2016,"Parent_Lea":"American","Parent_Tea":"DET","League":"Gulf Coast","Team":"Tigers East","Team_1":"Tigers East","Classifica":"Rk","Location_I":"FL_US","City":" ","State":"FL","Country":"US","Lat":27.756767,"Long":-81.463982999999999}},{"type":"Feature","id":49,"geometry":{"type":"Point","coordinates":[-81.463982999999999,27.756767]},"properties":{"FID":49,"OBJECTID":11561,"Team_ID":"2016_GulfCoast_TigersWest","Season":2016,"Parent_Lea":"American","Parent_Tea":"DET","League":"Gulf Coast","Team":"Tigers West","Team_1":"Tigers West","Classifica":"Rk","Location_I":"FL_US","City":" ","State":"FL","Country":"US","Lat":27.756767,"Long":-81.463982999999999}},{"type":"Feature","id":50,"geometry":{"type":"Point","coordinates":[-81.463982999999999,27.756767]},"properties":{"FID":50,"OBJECTID":11562,"Team_ID":"2016_GulfCoast_Twins","Season":2016,"Parent_Lea":"American","Parent_Tea":"MIN","League":"Gulf Coast","Team":"Twins","Team_1":"Twins","Classifica":"Rk","Location_I":"FL_US","City":" ","State":"FL","Country":"US","Lat":27.756767,"Long":-81.463982999999999}},{"type":"Feature","id":51,"geometry":{"type":"Point","coordinates":[-81.463982999999999,27.756767]},"properties":{"FID":51,"OBJECTID":11563,"Team_ID":"2016_GulfCoast_YankeesEast","Season":2016,"Parent_Lea":"American","Parent_Tea":"NYY","League":"Gulf Coast","Team":"Yankees East","Team_1":"Yankees East","Classifica":"Rk","Location_I":"FL_US","City":" ","State":"FL","Country":"US","Lat":27.756767,"Long":-81.463982999999999}},{"type":"Feature","id":52,"geometry":{"type":"Point","coordinates":[-81.463982999999999,27.756767]},"properties":{"FID":52,"OBJECTID":11564,"Team_ID":"2016_GulfCoast_YankeesWest","Season":2016,"Parent_Lea":"American","Parent_Tea":"NYY","League":"Gulf Coast","Team":"Yankees West","Team_1":"Yankees West","Classifica":"Rk","Location_I":"FL_US","City":" ","State":"FL","Country":"US","Lat":27.756767,"Long":-81.463982999999999}},{"type":"Feature","id":53,"geometry":{"type":"Point","coordinates":[-78.878392000000005,42.886716999999997]},"properties":{"FID":53,"OBJECTID":11565,"Team_ID":"2016_International_Buffalo","Season":2016,"Parent_Lea":"American","Parent_Tea":"TOR","League":"International","Team":"Buffalo","Team_1":"Buffalo","Classifica":"AAA","Location_I":"Buffalo_NY_US","City":"Buffalo","State":"NY","Country":"US","Lat":42.886716999999997,"Long":-78.878392000000005}},{"type":"Feature","id":54,"geometry":{"type":"Point","coordinates":[-80.843126999999996,35.227086999999997]},"properties":{"FID":54,"OBJECTID":11566,"Team_ID":"2016_International_Charlotte","Season":2016,"Parent_Lea":"American","Parent_Tea":"CWS","League":"International","Team":"Charlotte","Team_1":"Charlotte","Classifica":"AAA","Location_I":"Charlotte_NC_US","City":"Charlotte","State":"NC","Country":"US","Lat":35.227086999999997,"Long":-80.843126999999996}},{"type":"Feature","id":55,"geometry":{"type":"Point","coordinates":[-83.000705999999994,39.962260000000001]},"properties":{"FID":55,"OBJECTID":11567,"Team_ID":"2016_International_Columbus","Season":2016,"Parent_Lea":"American","Parent_Tea":"CLE","League":"International","Team":"Columbus","Team_1":"Columbus","Classifica":"AAA","Location_I":"Columbus_OH_US","City":"Columbus","State":"OH","Country":"US","Lat":39.962260000000001,"Long":-83.000705999999994}},{"type":"Feature","id":56,"geometry":{"type":"Point","coordinates":[-78.898618999999997,35.994033000000002]},"properties":{"FID":56,"OBJECTID":11568,"Team_ID":"2016_International_Durham","Season":2016,"Parent_Lea":"American","Parent_Tea":"TB","League":"International","Team":"Durham","Team_1":"Durham","Classifica":"AAA","Location_I":"Durham_NC_US","City":"Durham","State":"NC","Country":"US","Lat":35.994033000000002,"Long":-78.898618999999997}},{"type":"Feature","id":57,"geometry":{"type":"Point","coordinates":[-83.113737,32.329380999999998]},"properties":{"FID":57,"OBJECTID":11569,"Team_ID":"2016_International_Gwinnett","Season":2016,"Parent_Lea":"National","Parent_Tea":"ATL","League":"International","Team":"Gwinnett","Team_1":"Gwinnett","Classifica":"AAA","Location_I":"Gwinnett_GA_US","City":"Gwinnett","State":"GA","Country":"US","Lat":32.329380999999998,"Long":-83.113737}},{"type":"Feature","id":58,"geometry":{"type":"Point","coordinates":[-86.158349999999999,39.768332999999998]},"properties":{"FID":58,"OBJECTID":11570,"Team_ID":"2016_International_Indianapolis","Season":2016,"Parent_Lea":"National","Parent_Tea":"PIT","League":"International","Team":"Indianapolis","Team_1":"Indianapolis","Classifica":"AAA","Location_I":"Indianapolis_IN_US","City":"Indianapolis","State":"IN","Country":"US","Lat":39.768332999999998,"Long":-86.158349999999999}},{"type":"Feature","id":59,"geometry":{"type":"Point","coordinates":[-75.471278999999996,40.602206000000002]},"properties":{"FID":59,"OBJECTID":11571,"Team_ID":"2016_International_LehighValley","Season":2016,"Parent_Lea":"National","Parent_Tea":"PHI","League":"International","Team":"Lehigh Valley","Team_1":"Lehigh Valley","Classifica":"AAA","Location_I":"Allentown_PA_US","City":"Allentown","State":"PA","Country":"US","Lat":40.602206000000002,"Long":-75.471278999999996}},{"type":"Feature","id":60,"geometry":{"type":"Point","coordinates":[-85.759406999999996,38.254238000000001]},"properties":{"FID":60,"OBJECTID":11572,"Team_ID":"2016_International_Louisville","Season":2016,"Parent_Lea":"National","Parent_Tea":"CIN","League":"International","Team":"Louisville","Team_1":"Louisville","Classifica":"AAA","Location_I":"Louisville_KY_US","City":"Louisville","State":"KY","Country":"US","Lat":38.254238000000001,"Long":-85.759406999999996}},{"type":"Feature","id":61,"geometry":{"type":"Point","coordinates":[-76.292924999999997,36.846288000000001]},"properties":{"FID":61,"OBJECTID":11573,"Team_ID":"2016_International_Norfolk","Season":2016,"Parent_Lea":"American","Parent_Tea":"BAL","League":"International","Team":"Norfolk","Team_1":"Norfolk","Classifica":"AAA","Location_I":"Norfolk_VA_US","City":"Norfolk","State":"VA","Country":"US","Lat":36.846288000000001,"Long":-76.292924999999997}},{"type":"Feature","id":62,"geometry":{"type":"Point","coordinates":[-71.382555999999994,41.878711000000003]},"properties":{"FID":62,"OBJECTID":11574,"Team_ID":"2016_International_Pawtucket","Season":2016,"Parent_Lea":"American","Parent_Tea":"BOS","League":"International","Team":"Pawtucket","Team_1":"Pawtucket","Classifica":"AAA","Location_I":"Pawtucket_RI_US","City":"Pawtucket","State":"RI","Country":"US","Lat":41.878711000000003,"Long":-71.382555999999994}},{"type":"Feature","id":63,"geometry":{"type":"Point","coordinates":[-77.615213999999995,43.157285000000002]},"properties":{"FID":63,"OBJECTID":11575,"Team_ID":"2016_International_Rochester","Season":2016,"Parent_Lea":"American","Parent_Tea":"MIN","League":"International","Team":"Rochester","Team_1":"Rochester","Classifica":"AAA","Location_I":"Rochester_NY_US","City":"Rochester","State":"NY","Country":"US","Lat":43.157285000000002,"Long":-77.615213999999995}},{"type":"Feature","id":64,"geometry":{"type":"Point","coordinates":[-75.738247999999999,41.353413000000003]},"properties":{"FID":64,"OBJECTID":11576,"Team_ID":"2016_International_Scranton/Wilkes-Barre","Season":2016,"Parent_Lea":"American","Parent_Tea":"NYY","League":"International","Team":"Scranton/Wilkes-Barre","Team_1":"Scranton/Wilkes-Barre","Classifica":"AAA","Location_I":"Moosic_PA_US","City":"Moosic","State":"PA","Country":"US","Lat":41.353413000000003,"Long":-75.738247999999999}},{"type":"Feature","id":65,"geometry":{"type":"Point","coordinates":[-76.147424000000001,43.048121999999999]},"properties":{"FID":65,"OBJECTID":11577,"Team_ID":"2016_International_Syracuse","Season":2016,"Parent_Lea":"National","Parent_Tea":"WSH","League":"International","Team":"Syracuse","Team_1":"Syracuse","Classifica":"AAA","Location_I":"Syracuse_NY_US","City":"Syracuse","State":"NY","Country":"US","Lat":43.048121999999999,"Long":-76.147424000000001}},{"type":"Feature","id":66,"geometry":{"type":"Point","coordinates":[-83.512727999999996,41.678674999999998]},"properties":{"FID":66,"OBJECTID":11578,"Team_ID":"2016_International_Toledo","Season":2016,"Parent_Lea":"American","Parent_Tea":"DET","League":"International","Team":"Toledo","Team_1":"Toledo","Classifica":"AAA","Location_I":"Toledo_OH_US","City":"Toledo","State":"OH","Country":"US","Lat":41.678674999999998,"Long":-83.512727999999996}},{"type":"Feature","id":67,"geometry":{"type":"Point","coordinates":[-98.108282000000003,39.458683999999998]},"properties":{"FID":67,"OBJECTID":11579,"Team_ID":"2016_Midwest_Beloit","Season":2016,"Parent_Lea":"American","Parent_Tea":"OAK","League":"Midwest","Team":"Beloit","Team_1":"Beloit","Classifica":"A","Location_I":"Beloit_MI_US","City":"Beloit","State":"MI","Country":"US","Lat":39.458683999999998,"Long":-98.108282000000003}},{"type":"Feature","id":68,"geometry":{"type":"Point","coordinates":[-86.443601999999998,36.990319999999997]},"properties":{"FID":68,"OBJECTID":11580,"Team_ID":"2016_Midwest_BowlingGreen","Season":2016,"Parent_Lea":"American","Parent_Tea":"TB","League":"Midwest","Team":"Bowling Green","Team_1":"Bowling Green","Classifica":"A","Location_I":"BowlingGreen_KY_US","City":"Bowling Green","State":"KY","Country":"US","Lat":36.990319999999997,"Long":-86.443601999999998}},{"type":"Feature","id":69,"geometry":{"type":"Point","coordinates":[-91.112922999999995,40.807538999999998]},"properties":{"FID":69,"OBJECTID":11581,"Team_ID":"2016_Midwest_Burlington","Season":2016,"Parent_Lea":"American","Parent_Tea":"LAA","League":"Midwest","Team":"Burlington","Team_1":"Burlington","Classifica":"A","Location_I":"Burlington_IA_US","City":"Burlington","State":"IA","Country":"US","Lat":40.807538999999998,"Long":-91.112922999999995}},{"type":"Feature","id":70,"geometry":{"type":"Point","coordinates":[-91.670405000000002,41.975887]},"properties":{"FID":70,"OBJECTID":11582,"Team_ID":"2016_Midwest_CedarRapids","Season":2016,"Parent_Lea":"American","Parent_Tea":"MIN","League":"Midwest","Team":"Cedar Rapids","Team_1":"Cedar Rapids","Classifica":"A","Location_I":"CedarRapids_IA_US","City":"Cedar Rapids","State":"IA","Country":"US","Lat":41.975887,"Long":-91.670405000000002}},{"type":"Feature","id":71,"geometry":{"type":"Point","coordinates":[-90.188738000000001,41.844473999999998]},"properties":{"FID":71,"OBJECTID":11583,"Team_ID":"2016_Midwest_Clinton","Season":2016,"Parent_Lea":"American","Parent_Tea":"SEA","League":"Midwest","Team":"Clinton","Team_1":"Clinton","Classifica":"A","Location_I":"Clinton_IA_US","City":"Clinton","State":"IA","Country":"US","Lat":41.844473999999998,"Long":-90.188738000000001}},{"type":"Feature","id":72,"geometry":{"type":"Point","coordinates":[-84.191607000000005,39.758947999999997]},"properties":{"FID":72,"OBJECTID":11584,"Team_ID":"2016_Midwest_Dayton","Season":2016,"Parent_Lea":"National","Parent_Tea":"CIN","League":"Midwest","Team":"Dayton","Team_1":"Dayton","Classifica":"A","Location_I":"Dayton_OH_US","City":"Dayton","State":"OH","Country":"US","Lat":39.758947999999997,"Long":-84.191607000000005}},{"type":"Feature","id":73,"geometry":{"type":"Point","coordinates":[-85.138600999999994,41.079990000000002]},"properties":{"FID":73,"OBJECTID":11585,"Team_ID":"2016_Midwest_FortWayne","Season":2016,"Parent_Lea":"National","Parent_Tea":"SD","League":"Midwest","Team":"Fort Wayne","Team_1":"Fort Wayne","Classifica":"A","Location_I":"FortWayne_IN_US","City":"Fort Wayne","State":"IN","Country":"US","Lat":41.079990000000002,"Long":-85.138600999999994}},{"type":"Feature","id":74,"geometry":{"type":"Point","coordinates":[-80.500622000000007,35.227366000000004]},"properties":{"FID":74,"OBJECTID":11586,"Team_ID":"2016_Midwest_GreatLakes","Season":2016,"Parent_Lea":"National","Parent_Tea":"LAD","League":"Midwest","Team":"Great Lakes","Team_1":"Great Lakes","Classifica":"A","Location_I":"Midland_MI_US","City":"Midland","State":"MI","Country":"US","Lat":35.227366000000004,"Long":-80.500622000000007}},{"type":"Feature","id":75,"geometry":{"type":"Point","coordinates":[-88.305351999999999,41.887528000000003]},"properties":{"FID":75,"OBJECTID":11587,"Team_ID":"2016_Midwest_KaneCounty","Season":2016,"Parent_Lea":"National","Parent_Tea":"ARI","League":"Midwest","Team":"Kane County","Team_1":"Kane County","Classifica":"A","Location_I":"Geneva_IL_US","City":"Geneva","State":"IL","Country":"US","Lat":41.887528000000003,"Long":-88.305351999999999}},{"type":"Feature","id":76,"geometry":{"type":"Point","coordinates":[-81.432209,41.659241000000002]},"properties":{"FID":76,"OBJECTID":11588,"Team_ID":"2016_Midwest_LakeCounty","Season":2016,"Parent_Lea":"American","Parent_Tea":"CLE","League":"Midwest","Team":"Lake County","Team_1":"Lake County","Classifica":"A","Location_I":"Eastlake_OH_US","City":"Eastlake","State":"OH","Country":"US","Lat":41.659241000000002,"Long":-81.432209}},{"type":"Feature","id":77,"geometry":{"type":"Point","coordinates":[-84.55538,42.733770999999997]},"properties":{"FID":77,"OBJECTID":11589,"Team_ID":"2016_Midwest_Lansing","Season":2016,"Parent_Lea":"American","Parent_Tea":"TOR","League":"Midwest","Team":"Lansing","Team_1":"Lansing","Classifica":"A","Location_I":"Lansing_MI_US","City":"Lansing","State":"MI","Country":"US","Lat":42.733770999999997,"Long":-84.55538}},{"type":"Feature","id":78,"geometry":{"type":"Point","coordinates":[-89.589100999999999,40.693860999999998]},"properties":{"FID":78,"OBJECTID":11590,"Team_ID":"2016_Midwest_Peoria","Season":2016,"Parent_Lea":"National","Parent_Tea":"STL","League":"Midwest","Team":"Peoria","Team_1":"Peoria","Classifica":"A","Location_I":"Peoria_IL_US","City":"Peoria","State":"IL","Country":"US","Lat":40.693860999999998,"Long":-89.589100999999999}},{"type":"Feature","id":79,"geometry":{"type":"Point","coordinates":[-90.577636999999996,41.523643999999997]},"properties":{"FID":79,"OBJECTID":11591,"Team_ID":"2016_Midwest_QuadCities","Season":2016,"Parent_Lea":"American","Parent_Tea":"HOU","League":"Midwest","Team":"Quad Cities","Team_1":"Quad Cities","Classifica":"A","Location_I":"Davenport_IA_US","City":"Davenport","State":"IA","Country":"US","Lat":41.523643999999997,"Long":-90.577636999999996}},{"type":"Feature","id":80,"geometry":{"type":"Point","coordinates":[-86.250006999999997,41.683380999999997]},"properties":{"FID":80,"OBJECTID":11592,"Team_ID":"2016_Midwest_SouthBend","Season":2016,"Parent_Lea":"National","Parent_Tea":"CHC","League":"Midwest","Team":"South Bend","Team_1":"South Bend","Classifica":"A","Location_I":"SouthBend_IN_US","City":"South Bend","State":"IN","Country":"US","Lat":41.683380999999997,"Long":-86.250006999999997}},{"type":"Feature","id":81,"geometry":{"type":"Point","coordinates":[-100.445882,39.783729999999998]},"properties":{"FID":81,"OBJECTID":11593,"Team_ID":"2016_Midwest_WestMichigan","Season":2016,"Parent_Lea":"American","Parent_Tea":"DET","League":"Midwest","Team":"West Michigan","Team_1":"West Michigan","Classifica":"A","Location_I":"ComstockPark_MI_US","City":"Comstock Park","State":"MI","Country":"US","Lat":39.783729999999998,"Long":-100.445882}},{"type":"Feature","id":82,"geometry":{"type":"Point","coordinates":[-88.406760000000006,44.261133999999998]},"properties":{"FID":82,"OBJECTID":11594,"Team_ID":"2016_Midwest_Wisconsin","Season":2016,"Parent_Lea":"National","Parent_Tea":"MIL","League":"Midwest","Team":"Wisconsin","Team_1":"Wisconsin","Classifica":"A","Location_I":"Appleton_WI_US","City":"Appleton","State":"WI","Country":"US","Lat":44.261133999999998,"Long":-88.406760000000006}}]}