{"type":"FeatureCollection","crs":{"type":"name","properties":{"name":"EPSG:4326"}},"features":[{"type":"Feature","id":0,"geometry":{"type":"Point","coordinates":[-76.610806999999994,39.290861]},"properties":{"FID":0,"OBJECTID":11425,"Team_ID":"2016_American_BAL","Season":2016,"Parent_Lea":" ","Parent_Tea":" ","League":"American","Team":"Baltimore","Team_1":"BAL","Classifica":"MLB","Location_I":"Baltimore_MD_US","City":"Baltimore","State":"MD","Country":"US","Lat":39.290861,"Long":-76.610806999999994}},{"type":"Feature","id":1,"geometry":{"type":"Point","coordinates":[-71.059567999999999,42.360481999999998]},"properties":{"FID":1,"OBJECTID":11426,"Team_ID":"2016_American_BOS","Season":2016,"Parent_Lea":" ","Parent_Tea":" ","League":"American","Team":"Boston","Team_1":"BOS","Classifica":"MLB","Location_I":"Boston_MA_US","City":"Boston","State":"MA","Country":"US","Lat":42.360481999999998,"Long":-71.059567999999999}},{"type":"Feature","id":2,"geometry":{"type":"Point","coordinates":[-87.624420999999998,41.875554999999999]},"properties":{"FID":2,"OBJECTID":11427,"Team_ID":"2016_American_CWS","Season":2016,"Parent_Lea":" ","Parent_Tea":" ","League":"American","Team":"Chicago","Team_1":"CWS","Classifica":"MLB","Location_I":"Chicago_IL_US","City":"Chicago","State":"IL","Country":"US","Lat":41.875554999999999,"Long":-87.624420999999998}},{"type":"Feature","id":3,"geometry":{"type":"Point","coordinates":[-81.693444999999997,41.505161000000001]},"properties":{"FID":3,"OBJECTID":11428,"Team_ID":"2016_American_CLE","Season":2016,"Parent_Lea":" ","Parent_Tea":" ","League":"American","Team":"Cleveland","Team_1":"CLE","Classifica":"MLB","Location_I":"Cleveland_OH_US","City":"Cleveland","State":"OH","Country":"US","Lat":41.505161000000001,"Long":-81.693444999999997}},{"type":"Feature","id":4,"geometry":{"type":"Point","coordinates":[-83.056736999999998,42.348663999999999]},"properties":{"FID":4,"OBJECTID":11429,"Team_ID":"2016_American_DET","Season":2016,"Parent_Lea":" ","Parent_Tea":" ","League":"American","Team":"Detroit","Team_1":"DET","Classifica":"MLB","Location_I":"Detroit_MI_US","City":"Detroit","State":"MI","Country":"US","Lat":42.348663999999999,"Long":-83.056736999999998}},{"type":"Feature","id":5,"geometry":{"type":"Point","coordinates":[-95.367697000000007,29.758938000000001]},"properties":{"FID":5,"OBJECTID":11430,"Team_ID":"2016_American_HOU","Season":2016,"Parent_Lea":" ","Parent_Tea":" ","League":"American","Team":"Houston","Team_1":"HOU","Classifica":"MLB","Location_I":"Houston_TX_US","City":"Houston","State":"TX","Country":"US","Lat":29.758938000000001,"Long":-95.367697000000007}},{"type":"Feature","id":6,"geometry":{"type":"Point","coordinates":[-94.563029999999998,39.084468999999999]},"properties":{"FID":6,"OBJECTID":11431,"Team_ID":"2016_American_KC","Season":2016,"Parent_Lea":" ","Parent_Tea":" ","League":"American","Team":"Kansas City","Team_1":"KC","Classifica":"MLB","Location_I":"KansasCity_MO_US","City":"Kansas City","State":"MO","Country":"US","Lat":39.084468999999999,"Long":-94.563029999999998}},{"type":"Feature","id":7,"geometry":{"type":"Point","coordinates":[-118.24394100000001,34.054394000000002]},"properties":{"FID":7,"OBJECTID":11432,"Team_ID":"2016_American_LAA","Season":2016,"Parent_Lea":" ","Parent_Tea":" ","League":"American","Team":"Los Angeles","Team_1":"LAA","Classifica":"MLB","Location_I":"LosAngeles_CA_US","City":"Los Angeles","State":"CA","Country":"US","Lat":34.054394000000002,"Long":-118.24394100000001}},{"type":"Feature","id":8,"geometry":{"type":"Point","coordinates":[-93.265468999999996,44.9773]},"properties":{"FID":8,"OBJECTID":11433,"Team_ID":"2016_American_MIN","Season":2016,"Parent_Lea":" ","Parent_Tea":" ","League":"American","Team":"Minnesota","Team_1":"MIN","Classifica":"MLB","Location_I":"Minneapolis_MN_US","City":"Minneapolis","State":"MN","Country":"US","Lat":44.9773,"Long":-93.265468999999996}},{"type":"Feature","id":9,"geometry":{"type":"Point","coordinates":[-75.291082000000003,43.102443000000001]},"properties":{"FID":9,"OBJECTID":11434,"Team_ID":"2016_American_NYY","Season":2016,"Parent_Lea":" ","Parent_Tea":" ","League":"American","Team":"New York","Team_1":"NYY","Classifica":"MLB","Location_I":"NewYork_NY_US","City":"New York","State":"NY","Country":"US","Lat":43.102443000000001,"Long":-75.291082000000003}},{"type":"Feature","id":10,"geometry":{"type":"Point","coordinates":[-122.271356,37.804456000000002]},"properties":{"FID":10,"OBJECTID":11435,"Team_ID":"2016_American_OAK","Season":2016,"Parent_Lea":" ","Parent_Tea":" ","League":"American","Team":"Oakland","Team_1":"OAK","Classifica":"MLB","Location_I":"Oakland_CA_US","City":"Oakland","State":"CA","Country":"US","Lat":37.804456000000002,"Long":-122.271356}},{"type":"Feature","id":11,"geometry":{"type":"Point","coordinates":[-122.330062,47.603831999999997]},"properties":{"FID":11,"OBJECTID":11436,"Team_ID":"2016_American_SEA","Season":2016,"Parent_Lea":" ","Parent_Tea":" ","League":"American","Team":"Seattle","Team_1":"SEA","Classifica":"MLB","Location_I":"Seattle_WA_US","City":"Seattle","State":"WA","Country":"US","Lat":47.603831999999997,"Long":-122.330062}},{"type":"Feature","id":12,"geometry":{"type":"Point","coordinates":[-82.458444,27.947759999999999]},"properties":{"FID":12,"OBJECTID":11437,"Team_ID":"2016_American_TB","Season":2016,"Parent_Lea":" ","Parent_Tea":" ","League":"American","Team":"Tampa Bay","Team_1":"TB","Classifica":"MLB","Location_I":"Tampa_FL_US","City":"Tampa","State":"FL","Country":"US","Lat":27.947759999999999,"Long":-82.458444}},{"type":"Feature","id":13,"geometry":{"type":"Point","coordinates":[-97.107118999999997,32.735582000000001]},"properties":{"FID":13,"OBJECTID":11438,"Team_ID":"2016_American_TEX","Season":2016,"Parent_Lea":" ","Parent_Tea":" ","League":"American","Team":"Texas","Team_1":"TEX","Classifica":"MLB","Location_I":"Arlington_TX_US","City":"Arlington","State":"TX","Country":"US","Lat":32.735582000000001,"Long":-97.107118999999997}},{"type":"Feature","id":14,"geometry":{"type":"Point","coordinates":[-79.384900999999999,43.652920999999999]},"properties":{"FID":14,"OBJECTID":11439,"Team_ID":"2016_American_TOR","Season":2016,"Parent_Lea":" ","Parent_Tea":" ","League":"American","Team":"Toronto","Team_1":"TOR","Classifica":"MLB","Location_I":"Toronto_ON_CA","City":"Toronto","State":"ON","Country":"CA","Lat":43.652920999999999,"Long":-79.384900999999999}},{"type":"Feature","id":15,"geometry":{"type":"Point","coordinates":[-111.76327499999999,34.395341999999999]},"properties":{"FID":15,"OBJECTID":11595,"Team_ID":"2016_National_ARI","Season":2016,"Parent_Lea":" ","Parent_Tea":" ","League":"National","Team":"Arizona","Team_1":"ARI","Classifica":"MLB","Location_I":"AZ_US","City":" ","State":"AZ","Country":"US","Lat":34.395341999999999,"Long":-111.76327499999999}},{"type":"Feature","id":16,"geometry":{"type":"Point","coordinates":[-84.390185000000002,33.749099000000001]},"properties":{"FID":16,"OBJECTID":11596,"Team_ID":"2016_National_ATL","Season":2016,"Parent_Lea":" ","Parent_Tea":" ","League":"National","Team":"Atlanta","Team_1":"ATL","Classifica":"MLB","Location_I":"Atlanta_GA_US","City":"Atlanta","State":"GA","Country":"US","Lat":33.749099000000001,"Long":-84.390185000000002}},{"type":"Feature","id":17,"geometry":{"type":"Point","coordinates":[-87.624420999999998,41.875554999999999]},"properties":{"FID":17,"OBJECTID":11597,"Team_ID":"2016_National_CHC","Season":2016,"Parent_Lea":" ","Parent_Tea":" ","League":"National","Team":"Chicago","Team_1":"CHC","Classifica":"MLB","Location_I":"Chicago_IL_US","City":"Chicago","State":"IL","Country":"US","Lat":41.875554999999999,"Long":-87.624420999999998}},{"type":"Feature","id":18,"geometry":{"type":"Point","coordinates":[-84.512460000000004,39.101453999999997]},"properties":{"FID":18,"OBJECTID":11598,"Team_ID":"2016_National_CIN","Season":2016,"Parent_Lea":" ","Parent_Tea":" ","League":"National","Team":"Cincinnati","Team_1":"CIN","Classifica":"MLB","Location_I":"Cincinnati_OH_US","City":"Cincinnati","State":"OH","Country":"US","Lat":39.101453999999997,"Long":-84.512460000000004}},{"type":"Feature","id":19,"geometry":{"type":"Point","coordinates":[-104.984703,39.739153999999999]},"properties":{"FID":19,"OBJECTID":11599,"Team_ID":"2016_National_COL","Season":2016,"Parent_Lea":" ","Parent_Tea":" ","League":"National","Team":"Colorado","Team_1":"COL","Classifica":"MLB","Location_I":"Denver_CO_US","City":"Denver","State":"CO","Country":"US","Lat":39.739153999999999,"Long":-104.984703}},{"type":"Feature","id":20,"geometry":{"type":"Point","coordinates":[-118.24394100000001,34.054394000000002]},"properties":{"FID":20,"OBJECTID":11600,"Team_ID":"2016_National_LAD","Season":2016,"Parent_Lea":" ","Parent_Tea":" ","League":"National","Team":"Los Angeles","Team_1":"LAD","Classifica":"MLB","Location_I":"LosAngeles_CA_US","City":"Los Angeles","State":"CA","Country":"US","Lat":34.054394000000002,"Long":-118.24394100000001}},{"type":"Feature","id":21,"geometry":{"type":"Point","coordinates":[-80.193658999999997,25.774266000000001]},"properties":{"FID":21,"OBJECTID":11601,"Team_ID":"2016_National_MIA","Season":2016,"Parent_Lea":" ","Parent_Tea":" ","League":"National","Team":"Miami","Team_1":"MIA","Classifica":"MLB","Location_I":"Miami_FL_US","City":"Miami","State":"FL","Country":"US","Lat":25.774266000000001,"Long":-80.193658999999997}},{"type":"Feature","id":22,"geometry":{"type":"Point","coordinates":[-87.922497000000007,43.034993]},"properties":{"FID":22,"OBJECTID":11602,"Team_ID":"2016_National_MIL","Season":2016,"Parent_Lea":" ","Parent_Tea":" ","League":"National","Team":"Milwaukee","Team_1":"MIL","Classifica":"MLB","Location_I":"Milwaukee_WI_US","City":"Milwaukee","State":"WI","Country":"US","Lat":43.034993,"Long":-87.922497000000007}},{"type":"Feature","id":23,"geometry":{"type":"Point","coordinates":[-75.291082000000003,43.102443000000001]},"properties":{"FID":23,"OBJECTID":11603,"Team_ID":"2016_National_NYM","Season":2016,"Parent_Lea":" ","Parent_Tea":" ","League":"National","Team":"New York","Team_1":"NYM","Classifica":"MLB","Location_I":"NewYork_NY_US","City":"New York","State":"NY","Country":"US","Lat":43.102443000000001,"Long":-75.291082000000003}},{"type":"Feature","id":24,"geometry":{"type":"Point","coordinates":[-75.163589999999999,39.952399]},"properties":{"FID":24,"OBJECTID":11604,"Team_ID":"2016_National_PHI","Season":2016,"Parent_Lea":" ","Parent_Tea":" ","League":"National","Team":"Philadelphia","Team_1":"PHI","Classifica":"MLB","Location_I":"Philadelphia_PA_US","City":"Philadelphia","State":"PA","Country":"US","Lat":39.952399,"Long":-75.163589999999999}},{"type":"Feature","id":25,"geometry":{"type":"Point","coordinates":[-79.990086000000005,40.441693999999998]},"properties":{"FID":25,"OBJECTID":11605,"Team_ID":"2016_National_PIT","Season":2016,"Parent_Lea":" ","Parent_Tea":" ","League":"National","Team":"Pittsburgh","Team_1":"PIT","Classifica":"MLB","Location_I":"Pittsburgh_PA_US","City":"Pittsburgh","State":"PA","Country":"US","Lat":40.441693999999998,"Long":-79.990086000000005}},{"type":"Feature","id":26,"geometry":{"type":"Point","coordinates":[-117.16277100000001,32.717421000000002]},"properties":{"FID":26,"OBJECTID":11606,"Team_ID":"2016_National_SD","Season":2016,"Parent_Lea":" ","Parent_Tea":" ","League":"National","Team":"San Diego","Team_1":"SD","Classifica":"MLB","Location_I":"SanDiego_CA_US","City":"San Diego","State":"CA","Country":"US","Lat":32.717421000000002,"Long":-117.16277100000001}},{"type":"Feature","id":27,"geometry":{"type":"Point","coordinates":[-122.41927,37.779277]},"properties":{"FID":27,"OBJECTID":11607,"Team_ID":"2016_National_SF","Season":2016,"Parent_Lea":" ","Parent_Tea":" ","League":"National","Team":"San Francisco","Team_1":"SF","Classifica":"MLB","Location_I":"SanFrancisco_CA_US","City":"San Francisco","State":"CA","Country":"US","Lat":37.779277,"Long":-122.41927}},{"type":"Feature","id":28,"geometry":{"type":"Point","coordinates":[-90.197889000000004,38.627273000000002]},"properties":{"FID":28,"OBJECTID":11608,"Team_ID":"2016_National_STL","Season":2016,"Parent_Lea":" ","Parent_Tea":" ","League":"National","Team":"St. Louis","Team_1":"STL","Classifica":"MLB","Location_I":"StLouis_MO_US","City":"St. Louis","State":"MO","Country":"US","Lat":38.627273000000002,"Long":-90.197889000000004}},{"type":"Feature","id":29,"geometry":{"type":"Point","coordinates":[-77.036646000000005,38.894955000000003]},"properties":{"FID":29,"OBJECTID":11609,"Team_ID":"2016_National_WSH","Season":2016,"Parent_Lea":" ","Parent_Tea":" ","League":"National","Team":"Washington","Team_1":"WSH","Classifica":"MLB","Location_I":"Washington_DC_US","City":"Washington","State":"DC","Country":"US","Lat":38.894955000000003,"Long":-77.036646000000005}}]}